[{"latitude":50.720797,"nom":"Tourcoing","population":99165,"longitude":3.157799},
{"latitude":48.840106,"nom":"Noisy-le-Grand","population":68930,"longitude":2.551491},
{"latitude":50.951564,"nom":"Calais","population":67544,"longitude":1.8661120000000002},
{"latitude":44.851895,"nom":"Bordeaux","population":259809,"longitude":-0.587877},
{"latitude":49.355057,"nom":"Saint-Pierre","population":83930,"longitude":6.144708},
{"latitude":45.707095,"nom":"Vénissieux","population":66765,"longitude":4.881379},
{"latitude":48.789495,"nom":"Vitry-sur-Seine","population":95649,"longitude":2.39571},
{"latitude":45.583223,"nom":"Chambéry","population":59172,"longitude":5.909299},
{"latitude":45.182081,"nom":"Grenoble","population":158240,"longitude":5.7243},
{"latitude":46.586616,"nom":"Poitiers","population":90033,"longitude":0.356849},
{"latitude":45.901584,"nom":"Annecy","population":131766,"longitude":6.125296},
{"latitude":48.912832,"nom":"Aubervilliers","population":89401,"longitude":2.386579},
{"latitude":48.799943,"nom":"Saint-Maur-des-Fossés","population":74520,"longitude":2.491801},
{"latitude":49.108385,"nom":"Metz","population":120211,"longitude":6.194897},
{"latitude":-20.909778,"nom":"Saint-Denis","population":113116,"longitude":55.444588},
{"latitude":47.984583,"nom":"La Rochelle","population":77210,"longitude":-1.653965},
{"latitude":42.962755,"nom":"Bourges","population":64362,"longitude":1.861999},
{"latitude":47.395476,"nom":"Tours","population":137850,"longitude":0.69472},
{"latitude":49.250948,"nom":"Reims","population":180318,"longitude":4.055595},
{"latitude":43.610476,"nom":"Montpellier","population":299096,"longitude":3.87048},
{"latitude":49.895894,"nom":"Amiens","population":134167,"longitude":2.314669},
{"latitude":43.555468,"nom":"Cannes","population":72435,"longitude":7.004585},
{"latitude":47.993378,"nom":"Le Mans","population":145155,"longitude":0.190842},
{"latitude":48.940735,"nom":"Aulnay-sous-Bois","population":86485,"longitude":2.497929},
{"latitude":48.812752,"nom":"Ivry-sur-Seine","population":64016,"longitude":2.386427},
{"latitude":47.466735,"nom":"Angers","population":155876,"longitude":-0.56191},
{"latitude":49.507345,"nom":"Le Havre","population":165830,"longitude":0.129995},
{"latitude":50.630992,"nom":"Lille","population":236234,"longitude":3.045433},
{"latitude":46.327372,"nom":"Niort","population":58966,"longitude":-0.466291},
{"latitude":45.856159,"nom":"Limoges","population":130592,"longitude":1.221254},
{"latitude":48.886191,"nom":"Neuilly-sur-Seine","population":59388,"longitude":2.265869},
{"latitude":47.873361,"nom":"Orléans","population":117026,"longitude":1.910372},
{"latitude":43.713012,"nom":"Nice","population":343477,"longitude":7.250987},
{"latitude":48.784506,"nom":"Créteil","population":92566,"longitude":2.452976},
{"latitude":48.081502,"nom":"Colmar","population":68294,"longitude":7.352569},
{"latitude":44.787469,"nom":"Pessac","population":65866,"longitude":-0.675933},
{"latitude":48.936683,"nom":"Le Blanc-Mesnil","population":57989,"longitude":2.457832},
{"latitude":41.933934,"nom":"Ajaccio","population":72647,"longitude":8.715408},
{"latitude":48.292817,"nom":"Troyes","population":62597,"longitude":4.075149},
{"latitude":45.758,"nom":"Lyon","population":522228,"longitude":4.835},
{"latitude":16.257496,"nom":"Saint-Paul","population":104301,"longitude":-61.399444},
{"latitude":48.926032,"nom":"Drancy","population":71276,"longitude":2.444913},
{"latitude":48.390709,"nom":"Avignon","population":90597,"longitude":-1.759717},
{"latitude":43.582206,"nom":"Antibes","population":74709,"longitude":7.103245},
{"latitude":43.407055,"nom":"Versailles","population":83583,"longitude":5.33893},
{"latitude":45.430195,"nom":"Saint-Étienne","population":174082,"longitude":4.370045},
{"latitude":45.786671,"nom":"Clermont-Ferrand","population":147284,"longitude":3.107042},
{"latitude":43.136385000000004,"nom":"Toulon","population":179659,"longitude":5.933457},
{"latitude":43.541369,"nom":"Aix-en-Provence","population":147122,"longitude":5.406124},
{"latitude":48.750996,"nom":"Antony","population":62906,"longitude":2.297825},
{"latitude":48.627362,"nom":"Évry-Courcouronnes","population":66106,"longitude":2.433066},
{"latitude":48.894215,"nom":"Levallois-Perret","population":67258,"longitude":2.286846},
{"latitude":43.09374,"nom":"La Seyne-sur-Mer","population":62232,"longitude":5.879869},
{"latitude":43.313159,"nom":"Pau","population":75665,"longitude":-0.343106},
{"latitude":43.282,"nom":"Marseille","population":870321,"longitude":5.405},
{"latitude":49.629619,"nom":"Cherbourg-en-Cotentin","population":77789,"longitude":-1.626864},
{"latitude":48.817209,"nom":"Champigny-sur-Marne","population":77439,"longitude":2.521265},
{"latitude":43.348715000000006,"nom":"Béziers","population":78683,"longitude":3.2328490000000003},
{"latitude":45.768975,"nom":"Villeurbanne","population":154781,"longitude":4.890035},
{"latitude":48.897998,"nom":"Courbevoie","population":82074,"longitude":2.256986},
{"latitude":47.275247,"nom":"Saint-Nazaire","population":71887,"longitude":-2.242494},
{"latitude":48.948465,"nom":"Argenteuil","population":108567,"longitude":2.248202},
{"latitude":50.688454,"nom":"Roubaix","population":98066,"longitude":3.183662},
{"latitude":48.823903,"nom":"Issy-les-Moulineaux","population":67937,"longitude":2.262888},
{"latitude":-12.797599000000002,"nom":"Mamoudzou","population":71437,"longitude":45.200869000000004},
{"latitude":48.874602,"nom":"Rueil-Malmaison","population":78265,"longitude":2.180528},
{"latitude":43.604082,"nom":"Toulouse","population":498003,"longitude":1.433805},
{"latitude":14.635584,"nom":"Fort-de-France","population":75286,"longitude":-61.064593},
{"latitude":50.637916,"nom":"Villeneuve-d'Ascq","population":61258,"longitude":3.147134},
{"latitude":48.216124,"nom":"Montreuil","population":111367,"longitude":-2.033927},
{"latitude":44.921313,"nom":"Valence","population":64431,"longitude":4.923011},
{"latitude":49.184571,"nom":"Caen","population":107250,"longitude":-0.372291},
{"latitude":48.918227,"nom":"Asnières-sur-Seine","population":88004,"longitude":2.292481},
{"latitude":48.406435,"nom":"Brest","population":139456,"longitude":-4.497736},
{"latitude":43.814652,"nom":"Nîmes","population":147496,"longitude":4.356289},
{"latitude":48.90348,"nom":"Clichy","population":62933,"longitude":2.304932},
{"latitude":48.836976,"nom":"Boulogne-Billancourt","population":120911,"longitude":2.242716},
{"latitude":48.68793,"nom":"Nancy","population":104403,"longitude":6.171514},
{"latitude":48.922535,"nom":"Colombes","population":86775,"longitude":2.247799},
{"latitude":47.998749000000004,"nom":"Quimper","population":63473,"longitude":-4.093145},
{"latitude":47.751678,"nom":"Mulhouse","population":108038,"longitude":7.326517000000001},
{"latitude":49.440044,"nom":"Rouen","population":114187,"longitude":1.093912},
{"latitude":51.028093,"nom":"Dunkerque","population":86545,"longitude":2.346065},
{"latitude":42.701392,"nom":"Perpignan","population":118032,"longitude":2.902878},
{"latitude":47.239367,"nom":"Nantes","population":320732,"longitude":-1.555335},
{"latitude":47.24378,"nom":"Besançon","population":118258,"longitude":6.00064},
{"latitude":48.898095,"nom":"Nanterre","population":95782,"longitude":2.202314},
{"latitude":-21.249182,"nom":"Le Tampon","population":80778,"longitude":55.542642},
{"latitude":47.331848,"nom":"Dijon","population":159106,"longitude":5.033601},
{"latitude":48.991319,"nom":"Sarcelles","population":58483,"longitude":2.382412},
{"latitude":48.579831,"nom":"Strasbourg","population":290576,"longitude":7.761454},
{"latitude":48.110899,"nom":"Rennes","population":222485,"longitude":-1.6836500000000003},
{"latitude":48.900267,"nom":"Pantin","population":60419,"longitude":2.409457},
{"latitude":16.210225,"nom":"Montauban","population":61677,"longitude":-61.499534999999995},
{"latitude":44.83337,"nom":"Mérignac","population":74009,"longitude":-0.674682},
{"latitude":16.255533,"nom":"Cayenne","population":65956,"longitude":-61.281502},
{"latitude":-22.26308,"nom":"Nouméa","population":94285,"longitude":166.44574200000002},
{"latitude":49.042161,"nom":"Cergy","population":67790,"longitude":2.046317},
{"latitude":48.859,"nom":"Paris","population":2145906,"longitude":2.347}
]